is_race_on	timestamp_ms	engine_max_rpm	engine_idle_rpm	current_engine_rpm	acceleration_x	acceleration_y	acceleration_z	velocity_x	velocity_y	velocity_z	angular_velocity_x	angular_velocity_y	angular_velocity_z	yaw	pitch	roll	norm_suspension_travel_FL	norm_suspension_travel_FR	norm_suspension_travel_RL	norm_suspension_travel_RR	tire_slip_ratio_FL	tire_slip_ratio_FR	tire_slip_ratio_RL	tire_slip_ratio_RR	wheel_rotation_speed_FL	wheel_rotation_speed_FR	wheel_rotation_speed_RL	wheel_rotation_speed_RR	wheel_on_rumble_strip_FL	wheel_on_rumble_strip_FR	wheel_on_rumble_strip_RL	wheel_on_rumble_strip_RR	wheel_in_puddle_FL	wheel_in_puddle_FR	wheel_in_puddle_RL	wheel_in_puddle_RR	surface_rumble_FL	surface_rumble_FR	surface_rumble_RL	surface_rumble_RR	tire_slip_angle_FL	tire_slip_angle_FR	tire_slip_angle_RL	tire_slip_angle_RR	tire_combined_slip_FL	tire_combined_slip_FR	tire_combined_slip_RL	tire_combined_slip_RR	suspension_travel_meters_FL	suspension_travel_meters_FR	suspension_travel_meters_RL	suspension_travel_meters_RR	car_ordinal	car_class	car_performance_index	drivetrain_type	num_cylinders	position_x	position_y	position_z	speed	power	torque	tire_temp_FL	tire_temp_FR	tire_temp_RL	tire_temp_RR	boost	fuel	dist_traveled	best_lap_time	last_lap_time	cur_lap_time	cur_race_time	lap_no	race_pos	accel	brake	clutch	handbrake	gear	steer	norm_driving_line	norm_ai_brake_diff
1	20014171	7999.995117	1142.577393	5284.829102	-1.408991	-0.975852	-3.492148	-0.115014	0.132669	21.551876	0.029002	0.003045	0.173761	0.017374	-0.097028	0.046023	0.475618	0.446515	0.351206	0.379809	-0.011173	-0.023081	-0.203621	-0.021705	53.767208	53.594585	51.224167	53.637627	0.000000	0.000000	0.000000	0.000000	0.000000	0.000000	0.000000	0.000000	0.120000	0.120000	0.120000	0.120000	-0.002492	-0.001122	0.000716	0.000108	0.011448	0.023108	0.203622	0.021706	0.018344	0.011387	0.018615	0.024130	2148	2	700	2	8	-9051.794922	135.085114	2809.273682	21.552591	-108331.656250	-195.638794	151.150146	151.400391	150.990448	150.990448	-14.700000	1.000000	0.000000	0.000000	0.000000	0.000000	393.062744	0	0	0	0	0	0	3	0	0	0
1	20014203	7999.995117	1142.577393	5277.460938	0.002219	-0.846394	-2.947862	-0.116473	0.121228	21.488144	-0.028721	0.001062	0.033162	0.017404	-0.097179	0.048055	0.519839	0.467834	0.336921	0.376587	-0.010703	-0.040917	-0.022586	-0.192247	53.678856	53.413567	53.629513	51.205742	0.000000	0.000000	0.000000	0.000000	0.000000	0.000000	0.000000	0.000000	0.120000	0.120000	0.120000	0.120000	0.011518	0.011856	0.012349	0.015778	0.015724	0.042600	0.025741	0.192893	0.028915	0.016483	0.015861	0.023509	2148	2	700	2	8	-9051.790039	135.126129	2809.671875	21.488802	-107909.960938	-195.146927	151.146408	151.388000	150.979889	150.979889	-14.700000	1.000000	0.000000	0.000000	0.000000	0.000000	393.081329	0	0	0	0	0	0	3	0	0	0
1	20014234	7999.995117	1142.577393	5252.668945	-0.057269	-1.304940	-3.074119	-0.110257	0.030378	21.444746	-0.017778	-0.000848	-0.106534	0.017381	-0.097623	0.047083	0.511389	0.458281	0.323238	0.365737	-0.014952	-0.111031	-0.024674	-0.153509	53.303509	52.713184	53.312241	51.603176	0.000000	0.000000	0.000000	0.000000	0.000000	0.000000	0.000000	0.000000	0.120000	0.120000	0.120000	0.120000	0.031123	0.030616	0.026432	0.031762	0.034528	0.115174	0.036159	0.156760	0.026895	0.014199	0.013223	0.021417	2148	2	700	2	8	-9051.785156	135.166595	2810.073242	21.445051	-106716.257812	-193.933319	151.141663	151.374954	150.974457	150.974457	-14.700000	1.000000	0.000000	0.000000	0.000000	0.000000	393.100128	0	0	0	0	0	0	3	0	0	0
1	20014250	7999.995117	1142.577393	5238.693848	-0.467524	-2.474683	-3.578700	-0.096564	-0.063136	21.384451	-0.014139	-0.002963	-0.189316	0.017329	-0.097976	0.043987	0.483825	0.434842	0.311473	0.346645	-0.029821	-0.070051	-0.039121	-0.161085	53.255005	52.508736	53.150311	51.456871	0.000000	0.000000	0.000000	0.000000	0.000000	0.000000	0.000000	0.000000	0.120000	0.120000	0.120000	0.120000	0.037270	0.038457	0.032354	0.035679	0.047732	0.079913	0.050766	0.164989	0.020306	0.008596	0.010955	0.017736	2148	2	700	2	8	-9051.779297	135.209625	2810.516357	21.384762	-106176.656250	-193.429749	151.130463	151.361832	150.964066	150.964066	-14.700000	1.000000	0.000000	0.000000	0.000000	0.000000	393.120941	0	0	0	0	0	0	3	0	0	0
1	20014265	7999.995117	1142.577393	5237.003418	-0.573122	-2.677146	-2.952923	-0.078671	-0.107959	21.310991	0.034033	-0.003515	-0.137643	0.017259	-0.097586	0.040506	0.460812	0.410843	0.300596	0.327239	-0.017785	-0.083192	-0.113641	-0.016756	53.093933	52.330891	51.765732	53.112480	0.000000	0.000000	0.000000	0.000000	0.000000	0.000000	0.000000	0.000000	0.120000	0.120000	0.120000	0.120000	0.026878	0.030632	0.028905	0.026597	0.032229	0.088653	0.117259	0.031435	0.014804	0.002859	0.008858	0.013995	2148	2	700	2	8	-9051.773438	135.251175	2810.962646	21.311409	-106024.648438	-193.255966	151.120300	151.343842	150.953094	150.953094	-14.700000	1.000000	0.000000	0.000000	0.000000	0.000000	393.141937	0	0	0	0	0	0	3	0	0	0
1	20014296	7999.995117	1142.577393	5239.998535	-0.550394	-1.598072	-4.238797	-0.059597	-0.073630	21.231215	0.062191	-0.002046	-0.114456	0.017245	-0.096536	0.037894	0.454763	0.382821	0.290072	0.313574	-0.026155	-0.042571	-0.056650	-0.029784	52.778713	52.554394	52.374081	52.716099	0.000000	0.000000	0.000000	0.000000	0.000000	0.000000	0.000000	0.000000	0.120000	0.120000	0.120000	0.120000	0.018873	0.023238	0.022255	0.021996	0.032253	0.048501	0.060864	0.037026	0.013358	-0.003840	0.006829	0.011360	2148	2	700	2	8	-9051.766602	135.292572	2811.409424	21.231424	-105928.500000	-193.089340	151.113220	151.329834	150.940201	150.940201	-14.700000	1.000000	0.000000	0.000000	0.000000	0.000000	393.163025	0	0	0	0	0	0	3	0	0	0
1	20014312	7999.995117	1142.577393	5234.683594	2.592846	-0.390056	-3.048718	-0.038431	0.023588	21.154753	0.082000	-0.000580	-0.130226	0.017277	-0.094990	0.035431	0.475988	0.337257	0.284483	0.308408	-0.012633	-0.032548	-0.027425	-0.014550	52.723587	52.375645	52.483341	52.627319	0.000000	0.000000	0.000000	0.000000	0.000000	0.000000	0.000000	0.000000	0.120000	0.120000	0.120000	0.120000	0.014927	0.023732	0.020193	0.020152	0.019555	0.040281	0.034057	0.024856	0.018432	-0.014732	0.005751	0.010364	2148	2	700	2	8	-9051.759766	135.335190	2811.858643	21.154800	-105908.007812	-193.142731	151.107742	151.317810	150.930298	150.930298	-14.700000	1.000000	0.000000	0.000000	0.000000	0.000000	393.184326	0	0	0	0	0	0	3	0	0	0
1	20014328	7999.995117	1142.577393	5219.126465	-1.260393	1.352893	-4.021973	-0.015452	0.165747	21.081261	0.088623	0.002050	-0.129074	0.017361	-0.093133	0.032560	0.530484	0.429195	0.299100	0.328913	-0.020728	-0.015357	-0.028258	-0.009069	52.642307	52.263294	52.278332	52.401215	0.000000	0.000000	0.000000	0.000000	0.000000	0.000000	0.000000	0.000000	0.120000	0.120000	0.120000	0.120000	0.012660	0.017156	0.017763	0.016359	0.024288	0.023026	0.033377	0.018705	0.031460	0.007246	0.008569	0.014317	2148	2	700	2	8	-9051.752930	135.379745	2812.308105	21.081917	-105203.968750	-192.437546	151.104797	151.304001	150.919830	150.919830	-14.700000	1.000000	0.000000	0.000000	0.000000	0.000000	393.205719	0	0	0	0	0	0	3	0	0	0
1	20014343	7999.995117	1142.577393	5208.312500	1.836851	1.446719	-3.560546	-0.005864	0.231559	21.027966	0.025158	0.006459	-0.098425	0.017502	-0.091670	0.030258	0.591133	0.542739	0.330673	0.339737	-0.009999	-0.003598	-0.057853	-0.025841	52.624493	52.501125	51.842106	52.183167	0.000000	0.000000	0.000000	0.000000	0.000000	0.000000	0.000000	0.000000	0.120000	0.120000	0.120000	0.120000	0.010056	0.008336	0.015743	0.013123	0.014181	0.009079	0.059957	0.028982	0.045958	0.034389	0.014657	0.016404	2148	2	700	2	8	-9051.745117	135.426361	2812.760254	21.029242	-56452.746094	-103.461670	151.100967	151.292709	150.907166	150.907166	-13.112400	1.000000	0.000000	0.000000	0.000000	0.000000	393.227325	0	0	138	0	0	0	3	0	0	0
1	20014359	7999.995117	1142.577393	5205.135254	0.350454	-0.643498	-2.637535	-0.009602	0.103225	21.002775	-0.033042	0.008577	-0.087236	0.017650	-0.091932	0.028272	0.588221	0.537466	0.323689	0.330981	-0.011447	-0.009389	-0.066942	-0.034717	52.531075	52.473587	51.812771	52.205868	0.000000	0.000000	0.000000	0.000000	0.000000	0.000000	0.000000	0.000000	0.120000	0.120000	0.120000	0.120000	0.009769	0.013058	0.015731	0.014513	0.015049	0.016084	0.068765	0.037628	0.045262	0.033129	0.013310	0.014716	2148	2	700	2	8	-9051.738281	135.467285	2813.169922	21.003029	-12459.435547	-22.858095	151.093704	151.282074	150.891907	150.891907	-11.671800	1.000000	0.000000	0.000000	0.000000	0.000000	393.246918	0	0	255	0	0	0	3	0	0	0
1	20014375	7999.995117	1142.577393	5223.764648	-0.283622	-2.400407	-1.697819	-0.013725	-0.047197	20.976074	-0.079492	0.008865	-0.126799	0.017799	-0.093159	0.026362	0.570188	0.510558	0.310293	0.317161	-0.006806	-0.011890	-0.025573	-0.038194	52.600418	52.440758	52.494656	52.235588	0.000000	0.000000	0.000000	0.000000	0.000000	0.000000	0.000000	0.000000	0.120000	0.120000	0.120000	0.120000	0.011974	0.015016	0.016470	0.018042	0.013773	0.019154	0.030418	0.042241	0.040951	0.026696	0.010727	0.012051	2148	2	700	2	8	-9051.731445	135.506134	2813.585693	20.976131	31790.433594	58.143044	151.079681	151.266266	150.877106	150.877106	-10.209150	1.000000	0.000000	0.000000	0.000000	0.000000	393.266815	0	0	255	0	0	0	3	0	0	0
1	20014390	7999.995117	1142.577393	5259.247559	-0.718749	-1.171553	-1.392846	-0.002602	-0.046382	20.950054	-0.112528	0.007612	-0.155298	0.017916	-0.095071	0.023335	0.556223	0.494824	0.299761	0.301988	0.007396	0.007625	0.011909	0.012875	52.784710	52.710941	52.854252	52.846386	0.000000	0.000000	0.000000	0.000000	0.000000	0.000000	0.000000	0.000000	0.120000	0.120000	0.120000	0.120000	0.015984	0.010356	0.017673	0.019909	0.017612	0.012860	0.021311	0.023710	0.037613	0.022935	0.008697	0.009126	2148	2	700	2	8	-9051.724609	135.545135	2814.009277	20.950106	77101.984375	140.048676	151.071198	151.249176	150.868195	150.868195	-8.717100	1.000000	0.000000	0.000000	0.000000	0.000000	393.287109	0	0	255	0	0	0	3	0	0	0
1	20014421	7999.995117	1142.577393	5283.120605	-0.199631	0.506131	-2.287535	0.006882	-0.012821	20.952421	-0.142738	0.006407	-0.115468	0.017999	-0.097677	0.020639	0.553251	0.525669	0.297784	0.287668	0.020447	0.018472	0.030877	0.028218	53.016682	52.906788	53.133602	53.097904	0.000000	0.000000	0.000000	0.000000	0.000000	0.000000	0.000000	0.000000	0.120000	0.120000	0.120000	0.120000	0.011455	0.005797	0.010756	0.014481	0.023437	0.019360	0.032696	0.031717	0.036902	0.030309	0.008316	0.006365	2148	2	700	2	8	-9051.716797	135.584946	2814.426270	20.952425	122411.265625	221.321396	151.065277	151.241486	150.858826	150.858826	-7.247099	1.000000	0.000000	0.000000	0.000000	0.000000	393.307098	0	0	255	0	0	0	3	0	0	0
1	20014437	7999.995117	1142.577393	5305.744629	1.120552	1.090078	-0.575714	0.011175	0.011343	20.973457	-0.150908	0.004582	-0.079809	0.018042	-0.100415	0.018987	0.562916	0.571676	0.319580	0.281943	0.037057	0.028298	0.038430	0.042706	53.259045	53.341984	53.249779	53.212643	0.000000	0.000000	0.000000	0.000000	0.000000	0.000000	0.000000	0.000000	0.120000	0.120000	0.120000	0.120000	0.006358	0.005296	0.004105	0.012846	0.037599	0.028789	0.038649	0.044596	0.039213	0.041307	0.012518	0.005262	2148	2	700	2	8	-9051.709961	135.622589	2814.803955	20.973463	163817.234375	294.973480	151.059540	151.236038	150.851944	150.851944	-5.916750	1.000000	0.000000	0.000000	0.000000	0.000000	393.325195	0	0	255	0	0	0	3	0	0	0
1	20014453	7999.995117	1142.577393	5329.427246	0.862014	1.742818	-0.208669	0.018719	0.020460	21.009905	-0.107148	0.001923	-0.118547	0.018059	-0.102652	0.017028	0.569116	0.566352	0.373311	0.324824	0.059162	0.059192	0.050670	0.053250	53.579002	53.561157	53.459362	53.414986	0.000000	0.000000	0.000000	0.000000	0.000000	0.000000	0.000000	0.000000	0.120000	0.120000	0.120000	0.120000	0.009700	0.012534	0.007839	0.013350	0.059951	0.060505	0.051272	0.054897	0.040695	0.040034	0.022877	0.013529	2148	2	700	2	8	-9051.703125	135.661179	2815.179688	21.009920	205454.343750	368.187897	151.053299	151.226898	150.847794	150.847794	-4.593750	1.000000	0.000000	0.000000	0.000000	0.000000	393.343201	0	0	255	0	0	0	3	0	0	0
1	20014468	7999.995117	1142.577393	5353.101562	0.626778	2.264262	0.771265	0.027965	0.052519	21.065645	-0.063771	0.001440	-0.113018	0.018059	-0.104163	0.014967	0.562478	0.544194	0.431035	0.433603	0.065424	0.078078	0.059961	0.046162	53.587460	54.367527	53.580124	53.430092	0.000000	0.000000	0.000000	0.000000	0.000000	0.000000	0.000000	0.000000	0.120000	0.120000	0.120000	0.120000	0.007318	0.009325	0.006789	0.007009	0.065832	0.078632	0.060344	0.046691	0.039108	0.034737	0.034006	0.034501	2148	2	700	2	8	-9051.696289	135.701065	2815.556396	21.065729	247353.765625	441.688171	151.047455	151.221161	150.844986	150.844986	-3.270749	1.000000	0.000000	0.000000	0.000000	0.000000	393.361206	0	0	255	0	0	0	3	0	0	0
1	20014484	7999.995117	1142.577393	5422.643066	1.454657	1.829385	0.999388	0.030517	-0.012137	21.091280	-0.119279	0.000588	-0.051802	0.018052	-0.105648	0.013500	0.553661	0.527180	0.463104	0.487516	0.051743	0.037100	0.219332	0.107443	53.687073	53.463028	56.004810	54.602859	0.000000	0.000000	0.000000	0.000000	0.000000	0.000000	0.000000	0.000000	0.120000	0.120000	0.120000	0.120000	0.002012	-0.001551	0.000578	0.004693	0.051782	0.037133	0.219333	0.107546	0.037000	0.030670	0.040189	0.044895	2148	2	700	2	8	-9051.688477	135.740097	2815.923096	21.091307	290119.250000	511.993042	151.041962	151.208618	150.841461	150.841461	-1.984500	1.000000	0.000000	0.000000	0.000000	0.000000	393.378693	0	0	255	0	0	0	3	0	0	0
1	20014500	7999.995117	1142.577393	5504.965820	0.112380	0.640359	1.107950	0.027036	-0.111611	21.120234	-0.201733	0.004220	-0.028129	0.018049	-0.108700	0.012990	0.543897	0.528234	0.460645	0.471854	0.085018	0.057199	0.169619	0.307708	54.685333	54.218754	54.826454	57.333115	0.000000	0.000000	0.000000	0.000000	0.000000	0.000000	0.000000	0.000000	0.120000	0.120000	0.120000	0.120000	-0.002757	-0.005682	-0.002932	0.002858	0.085063	0.057481	0.169644	0.307721	0.034666	0.030922	0.039715	0.041876	2148	2	700	2	8	-9051.681641	135.779007	2816.296631	21.120544	335639.687500	582.688721	151.034912	151.203201	150.833008	150.833008	-0.676200	1.000000	0.000000	0.000000	0.000000	0.000000	393.396484	0	0	255	0	0	0	3	0	0	0
1	20014515	7999.995117	1142.577393	5527.403809	0.164471	0.589232	1.842237	0.022424	-0.150228	21.216192	-0.212279	0.004888	-0.039931	0.018102	-0.112509	0.012142	0.536241	0.544744	0.453718	0.455259	0.208657	0.124824	0.160502	0.117169	56.174088	55.815269	55.469280	54.506046	0.000000	0.000000	0.000000	0.000000	0.000000	0.000000	0.000000	0.000000	0.120000	0.120000	0.120000	0.120000	-0.000539	0.000132	0.001917	0.001252	0.208657	0.124824	0.160513	0.117175	0.032836	0.034869	0.038379	0.038676	2148	2	700	2	8	-9051.674805	135.817535	2816.665039	21.216736	358777.906250	619.707703	151.029312	151.198868	150.839935	150.839935	0.000000	1.000000	0.000000	0.000000	0.000000	0.000000	393.413971	0	0	255	0	0	0	3	0	0	0
1	20014531	7999.995117	1142.577393	5530.020996	0.208643	1.456719	2.961135	0.017760	-0.138129	21.328011	-0.156088	0.007005	-0.054125	0.018181	-0.115602	0.011271	0.529844	0.536884	0.450325	0.449646	0.132685	0.244342	0.109018	0.077960	55.364132	57.022842	55.109421	54.573360	0.000000	0.000000	0.000000	0.000000	0.000000	0.000000	0.000000	0.000000	0.120000	0.120000	0.120000	0.120000	0.001996	0.006070	0.005191	0.001505	0.132700	0.244417	0.109141	0.077974	0.031307	0.032990	0.037725	0.037594	2148	2	700	2	8	-9051.667969	135.856781	2817.028809	21.328463	358797.500000	619.692139	151.029541	151.192307	150.843582	150.843582	0.000000	1.000000	0.000000	0.000000	0.000000	0.000000	393.431183	0	0	255	0	0	0	3	0	0	0
1	20014546	7999.995117	1142.577393	5552.285156	0.137618	2.236704	3.836933	0.014907	-0.109157	21.418819	-0.089479	0.009202	-0.078216	0.018306	-0.117623	0.010073	0.528541	0.510631	0.451518	0.476831	0.095875	0.330959	0.100412	0.056476	55.124817	57.992794	55.229347	54.616879	0.000000	0.000000	0.000000	0.000000	0.000000	0.000000	0.000000	0.000000	0.120000	0.120000	0.120000	0.120000	0.004056	0.009218	0.008009	0.006356	0.095961	0.331088	0.100731	0.056833	0.030995	0.026714	0.037955	0.042835	2148	2	700	2	8	-9051.661133	135.897568	2817.394287	21.419102	359663.500000	619.002991	151.030365	151.190582	150.846176	150.846176	0.000000	1.000000	0.000000	0.000000	0.000000	0.000000	393.448395	0	0	255	0	0	0	3	0	0	0
1	20014578	7999.995117	1142.577393	5586.729980	0.051363	2.538682	4.076928	0.014737	-0.101902	21.500597	-0.054141	0.010194	-0.107787	0.018463	-0.118711	0.008552	0.527475	0.483799	0.464903	0.530580	0.087592	0.352867	0.105064	0.087830	55.646259	57.135700	55.394123	56.170956	0.000000	0.000000	0.000000	0.000000	0.000000	0.000000	0.000000	0.000000	0.120000	0.120000	0.120000	0.120000	0.009398	0.010572	0.009805	0.013574	0.088095	0.353026	0.105520	0.088872	0.030741	0.020300	0.040536	0.053198	2148	2	700	2	8	-9051.654297	135.939774	2817.763184	21.500843	361081.312500	617.870178	151.029297	151.191254	150.846161	150.846161	0.000000	1.000000	0.000000	0.000000	0.000000	0.000000	393.465698	0	0	255	0	0	0	3	2	0	0
1	20014593	7999.995117	1142.577393	5627.048828	0.703348	1.718501	4.256433	0.018297	-0.136902	21.578499	-0.068079	0.007752	-0.072716	0.018607	-0.119884	0.006843	0.524485	0.470274	0.483852	0.532098	0.289383	0.094750	0.136164	0.174666	58.102985	55.396126	55.845177	56.621830	0.000000	0.000000	0.000000	0.000000	0.000000	0.000000	0.000000	0.000000	0.120000	0.120000	0.120000	0.120000	0.013881	0.012544	0.006140	0.012774	0.289715	0.095576	0.136303	0.175133	0.030026	0.017066	0.044189	0.053490	2148	2	700	2	8	-9051.646484	135.982971	2818.142090	21.578941	362808.656250	616.297729	151.023865	151.201172	150.844696	150.844696	0.000000	1.000000	0.000000	0.000000	0.000000	0.000000	393.483398	0	0	255	0	0	0	3	5	0	0
1	20014609	7999.995117	1142.577393	5667.907227	0.495139	1.236513	4.167303	0.022858	-0.171361	21.654634	-0.081943	0.010605	-0.071622	0.018755	-0.121191	0.005669	0.514963	0.479324	0.482370	0.516055	0.240498	0.088106	0.091243	0.330565	57.392361	55.779064	55.937885	58.497562	0.000000	0.000000	0.000000	0.000000	0.000000	0.000000	0.000000	0.000000	0.120000	0.120000	0.120000	0.120000	0.025600	0.025473	0.005112	0.009293	0.241857	0.091715	0.091386	0.330696	0.027750	0.019230	0.043903	0.050397	2148	2	700	2	8	-9051.638672	136.026291	2818.522217	21.655323	364498.156250	614.569580	151.022629	151.198334	150.846405	150.846405	0.000000	1.000000	0.000000	0.000000	0.000000	0.000000	393.501099	0	0	255	0	0	0	3	39	0	0
1	20014625	7999.995117	1142.577393	5679.634766	0.371739	1.238386	4.743975	0.031896	-0.155504	21.759701	-0.050491	0.013089	-0.025060	0.018939	-0.122355	0.004947	0.507418	0.487957	0.477087	0.503151	0.073396	0.384780	0.205897	0.054158	55.731567	59.373451	57.558918	55.413883	0.000000	0.000000	0.000000	0.000000	0.000000	0.000000	0.000000	0.000000	0.120000	0.120000	0.120000	0.120000	0.045523	0.049956	0.000740	-0.000218	0.086367	0.388010	0.205899	0.054158	0.025946	0.021294	0.042885	0.047910	2148	2	700	2	8	-9051.630859	136.069992	2818.902100	21.760283	364922.937500	614.132629	151.025330	151.195541	150.846481	150.846481	0.000000	1.000000	0.000000	0.000000	0.000000	0.000000	393.518707	0	0	255	0	0	0	3	53	0	0
1	20014640	7999.995117	1142.577393	5720.578613	0.216194	1.428049	4.623939	0.041348	-0.134861	21.833893	-0.017718	0.022753	-0.006680	0.019248	-0.122950	0.004793	0.503971	0.467009	0.470936	0.499829	0.076674	0.451777	0.210920	0.063281	55.774963	61.029854	57.312454	55.604733	0.000000	0.000000	0.000000	0.000000	0.000000	0.000000	0.000000	0.000000	0.120000	0.120000	0.120000	0.120000	0.062801	0.070302	-0.002266	-0.001862	0.099110	0.457215	0.210932	0.063308	0.025122	0.016286	0.041699	0.047269	2148	2	700	2	8	-9051.623047	136.114716	2819.285400	21.834349	366448.062500	612.433411	151.027924	151.196365	150.844727	150.844727	0.000000	1.000000	0.000000	0.000000	0.000000	0.000000	393.536407	0	0	255	0	0	0	3	127	0	0
1	20014656	7999.995117	1142.577393	5779.027832	0.103046	1.369532	4.284624	0.053068	-0.134479	21.891577	-0.003009	0.038816	-0.096450	0.019811	-0.123003	0.003970	0.499920	0.443608	0.464528	0.502607	0.072914	0.513925	0.132200	0.218040	56.057182	61.729523	56.536255	57.746197	0.000000	0.000000	0.000000	0.000000	0.000000	0.000000	0.000000	0.000000	0.120000	0.120000	0.120000	0.120000	0.089621	0.101264	0.007821	0.011415	0.115535	0.523807	0.132431	0.218339	0.024153	0.010692	0.040463	0.047805	2148	2	700	2	8	-9051.615234	136.160202	2819.671875	21.892054	368525.343750	609.747131	151.029541	151.194443	150.847214	150.847214	0.000000	1.000000	0.000000	0.000000	0.000000	0.000000	393.554199	0	0	255	0	0	0	3	127	0	0
1	20014671	7999.995117	1142.577393	5815.980957	1.043655	0.810954	4.132251	0.073012	-0.157101	21.967340	-0.035771	0.055159	-0.190907	0.020645	-0.123292	0.001117	0.492758	0.425382	0.458997	0.495440	0.157207	0.190864	0.154120	0.481574	57.368572	57.096283	57.297009	61.791233	0.000000	0.000000	0.000000	0.000000	0.000000	0.000000	0.000000	0.000000	0.120000	0.120000	0.120000	0.120000	0.123601	0.127082	0.020357	0.027434	0.199978	0.229301	0.155459	0.482355	0.022441	0.006335	0.039397	0.046423	2148	2	700	2	8	-9051.606445	136.204575	2820.050781	21.968023	369854.406250	607.915833	151.031250	151.197449	150.849548	150.849548	0.000000	1.000000	0.000000	0.000000	0.000000	0.000000	393.571594	0	0	255	0	0	0	3	127	0	0
1	20014687	7999.995117	1142.577393	5861.020020	1.531018	0.184437	4.296511	0.090682	-0.208744	22.034369	-0.063705	0.071016	-0.210191	0.021788	-0.124227	-0.002652	0.482742	0.413436	0.457682	0.478750	0.248879	0.174812	0.187720	0.433926	58.943802	57.397484	57.862717	61.157738	0.000000	0.000000	0.000000	0.000000	0.000000	0.000000	0.000000	0.000000	0.120000	0.120000	0.120000	0.120000	0.150044	0.150564	0.022804	0.029208	0.290610	0.230714	0.189100	0.434908	0.020047	0.003479	0.039143	0.043205	2148	2	700	2	8	-9051.596680	136.248901	2820.433350	22.035543	371266.000000	605.636292	151.032715	151.205475	150.850601	150.850601	0.000000	1.000000	0.000000	0.000000	0.000000	0.000000	393.589081	0	0	255	0	0	0	3	127	0	0
1	20014703	7999.995117	1142.577393	5887.850098	1.830578	-0.241344	4.188035	0.102646	-0.246351	22.120197	-0.052779	0.074393	-0.061899	0.023113	-0.125346	-0.005462	0.469484	0.404896	0.461866	0.462349	0.378801	0.218519	0.402094	0.062133	60.641937	58.133499	61.463299	56.200413	0.000000	0.000000	0.000000	0.000000	0.000000	0.000000	0.000000	0.000000	0.120000	0.120000	0.120000	0.120000	0.162076	0.163956	0.010110	0.010266	0.412018	0.273188	0.402221	0.062976	0.016878	0.001437	0.039950	0.040043	2148	2	700	2	8	-9051.585938	136.293442	2820.821533	22.121805	372129.812500	604.224304	151.032822	151.208191	150.852844	150.852844	0.000000	1.000000	0.000000	0.000000	0.000000	0.000000	393.606781	0	0	255	0	0	0	3	127	0	0
1	20014718	7999.995117	1142.577393	5894.850098	1.363705	-0.137280	4.345417	0.109293	-0.248984	22.222721	-0.031855	0.089331	0.082463	0.024558	-0.126045	-0.005028	0.454315	0.405902	0.463939	0.459042	0.261729	0.308964	0.321042	0.141221	59.241379	60.022282	59.744164	57.712440	0.000000	0.000000	0.000000	0.000000	0.000000	0.000000	0.000000	0.000000	0.120000	0.120000	0.120000	0.120000	0.157430	0.171198	-0.004686	-0.003962	0.305428	0.353224	0.321076	0.141277	0.013251	0.001678	0.040350	0.039406	2148	2	700	2	8	-9051.575195	136.337967	2821.208984	22.224384	372681.656250	603.315369	151.037933	151.211716	150.852341	150.852341	0.000000	1.000000	0.000000	0.000000	0.000000	0.000000	393.624390	0	0	255	0	0	0	3	127	0	0
1	20014750	7999.995117	1142.577393	5867.050781	1.956002	0.569783	5.262208	0.121458	-0.198537	22.359013	-0.023038	0.114305	0.052075	0.026356	-0.126434	-0.003865	0.445911	0.423523	0.460830	0.476057	0.160601	0.358688	0.139092	0.182134	58.138714	60.169895	57.752121	59.543217	0.000000	0.000000	0.000000	0.000000	0.000000	0.000000	0.000000	0.000000	0.120000	0.120000	0.120000	0.120000	0.170792	0.189381	0.001064	0.002987	0.234441	0.405613	0.139096	0.182159	0.011242	0.005890	0.039750	0.042686	2148	2	700	2	8	-9051.563477	136.382797	2821.592041	22.360224	371614.093750	605.069031	151.049088	151.216248	150.865875	150.865875	0.000000	1.000000	0.000000	0.000000	0.000000	0.000000	393.641693	0	0	255	0	0	0	3	127	0	0
1	20014750	7999.995117	1142.577393	5905.336914	2.586922	0.869632	5.423877	0.141424	-0.205285	22.424128	-0.056183	0.139424	-0.058129	0.028535	-0.127132	-0.004387	0.449962	0.443237	0.461580	0.484897	0.124283	0.175169	0.100908	0.486711	58.172653	58.328033	57.957546	62.683163	0.000000	0.000000	0.000000	0.000000	0.000000	0.000000	0.000000	0.000000	0.120000	0.120000	0.120000	0.120000	0.201218	0.218133	0.015576	0.018932	0.236506	0.279761	0.102103	0.487079	0.012211	0.010603	0.039895	0.044390	2148	2	700	2	8	-9051.550781	136.427032	2821.965576	22.425512	372657.187500	603.355713	151.059952	151.226135	150.872116	150.872116	0.000000	1.000000	0.000000	0.000000	0.000000	0.000000	393.658508	0	0	255	0	0	0	3	127	0	0
1	20014781	7999.995117	1142.577393	5953.746094	2.927653	0.639152	4.823174	0.158431	-0.238969	22.476398	-0.082681	0.163327	-0.155576	0.031115	-0.128340	-0.006673	0.470925	0.444691	0.469282	0.470761	0.133223	0.221689	0.115041	0.509426	58.688972	59.225170	58.578175	62.593044	0.000000	0.000000	0.000000	0.000000	0.000000	0.000000	0.000000	0.000000	0.120000	0.120000	0.120000	0.120000	0.229608	0.251782	0.027248	0.030608	0.265458	0.335471	0.118224	0.510345	0.017222	0.010951	0.041380	0.041665	2148	2	700	2	8	-9051.537109	136.470825	2822.335449	22.478226	374314.250000	600.962158	151.067429	151.230286	150.873230	150.873230	0.000000	1.000000	0.000000	0.000000	0.000000	0.000000	393.675110	0	0	255	0	0	0	3	127	0	0
1	20014796	7999.995117	1142.577393	5972.104980	3.833532	0.390504	4.521827	0.166582	-0.268362	22.560139	-0.078525	0.180752	-0.199001	0.034078	-0.129792	-0.010382	0.482677	0.440784	0.471330	0.454114	0.217579	0.349041	0.195591	0.223296	60.290642	61.464050	60.015743	58.052162	0.000000	0.000000	0.000000	0.000000	0.000000	0.000000	0.000000	0.000000	0.120000	0.120000	0.120000	0.120000	0.254207	0.280071	0.035601	0.038561	0.334607	0.447514	0.198805	0.226601	0.020031	0.010017	0.041775	0.038455	2148	2	700	2	8	-9051.521484	136.514893	2822.708496	22.562349	374679.406250	598.748718	151.075668	151.234253	150.874405	150.874405	0.000000	1.000000	0.000000	0.000000	0.000000	0.000000	393.691803	0	0	255	0	0	0	3	127	0	0
1	20014812	7999.995117	1142.577393	6008.505371	3.884442	0.466748	4.657043	0.148732	-0.288368	22.626282	-0.019061	0.193148	-0.171527	0.037220	-0.130462	-0.013812	0.480295	0.432919	0.467309	0.439724	0.173983	0.621176	0.169991	0.088298	59.220848	64.768707	59.727947	57.566841	0.000000	0.000000	0.000000	0.000000	0.000000	0.000000	0.000000	0.000000	0.120000	0.120000	0.120000	0.120000	0.269371	0.310161	0.040048	0.041498	0.320673	0.694305	0.174645	0.097563	0.019462	0.008136	0.040999	0.035681	2148	2	700	2	8	-9051.504883	136.558777	2823.078369	22.628605	375794.500000	598.146851	151.083664	151.239746	150.877914	150.877914	0.000000	1.000000	0.000000	0.000000	0.000000	0.000000	393.708313	0	0	255	0	0	0	3	127	0	0
1	20014828	7999.995117	1142.577393	6074.098633	2.978069	-0.088147	4.406991	0.128130	-0.321783	22.660423	0.013124	0.204715	-0.119529	0.040520	-0.130373	-0.016555	0.476959	0.419632	0.461392	0.430151	0.130109	0.675627	0.342289	0.088256	58.790600	65.209099	62.274132	57.644547	0.000000	0.000000	0.000000	0.000000	0.000000	0.000000	0.000000	0.000000	0.120000	0.120000	0.120000	0.120000	0.277231	0.327407	0.042868	0.042391	0.306244	0.750778	0.344963	0.097909	0.018665	0.004960	0.039859	0.033835	2148	2	700	2	8	-9051.488281	136.602036	2823.447021	22.663069	377460.781250	594.522644	151.092804	151.245239	150.875458	150.875458	0.000000	1.000000	0.000000	0.000000	0.000000	0.000000	393.724701	0	0	255	0	0	0	3	127	0	0
1	20014843	7999.995117	1142.577393	6119.708496	3.004823	-0.482013	3.927345	0.124527	-0.335046	22.712175	-0.004376	0.219746	-0.024984	0.044063	-0.130188	-0.018184	0.469442	0.405361	0.453376	0.424347	0.159806	0.493663	0.535526	0.146052	59.536755	62.345505	65.222694	58.644962	0.000000	0.000000	0.000000	0.000000	0.000000	0.000000	0.000000	0.000000	0.120000	0.120000	0.120000	0.120000	0.280104	0.322210	0.038917	0.039179	0.322484	0.589510	0.536938	0.151216	0.016867	0.001549	0.038313	0.032717	2148	2	700	2	8	-9051.470703	136.645172	2823.818604	22.714989	378363.843750	590.760681	151.104431	151.254150	150.872833	150.872833	0.000000	1.000000	0.000000	0.000000	0.000000	0.000000	393.741211	0	0	255	0	0	0	3	127	0	0
1	20014859	7999.995117	1142.577393	6125.280762	4.201729	-0.330248	4.078691	0.129129	-0.327590	22.800243	-0.028740	0.242074	0.049973	0.047877	-0.130471	-0.018207	0.462489	0.397977	0.445304	0.428686	0.171030	0.426780	0.470941	0.211217	60.146492	62.693844	63.258408	59.874966	0.000000	0.000000	0.000000	0.000000	0.000000	0.000000	0.000000	0.000000	0.120000	0.120000	0.120000	0.120000	0.282691	0.330769	0.031426	0.034013	0.330402	0.539953	0.471989	0.213938	0.015205	-0.000217	0.036757	0.033553	2148	2	700	2	8	-9051.451172	136.687943	2824.186768	22.802961	378356.687500	589.487183	151.119904	151.273422	150.875458	150.875458	0.000000	1.000000	0.000000	0.000000	0.000000	0.000000	393.757507	0	0	255	0	0	0	3	127	0	0
1	20014875	7999.995117	1142.577393	6090.247559	4.084483	0.400795	4.888811	0.124597	-0.274726	22.929331	-0.006626	0.265307	0.036188	0.052072	-0.130681	-0.018104	0.456356	0.396695	0.440107	0.456068	0.208731	0.554720	0.143812	0.190606	60.854630	64.081612	60.248249	59.382355	0.000000	0.000000	0.000000	0.000000	0.000000	0.000000	0.000000	0.000000	0.120000	0.120000	0.120000	0.120000	0.301683	0.347139	0.038315	0.039995	0.366853	0.654385	0.148828	0.194757	0.013739	-0.000523	0.035755	0.038832	2148	2	700	2	8	-9051.430664	136.731384	2824.554443	22.931314	377578.062500	591.595642	151.137222	151.284485	150.895050	150.895050	0.000000	1.000000	0.000000	0.000000	0.000000	0.000000	393.773712	0	0	255	0	0	0	3	127	0	0
1	20014890	7999.995117	1142.577393	6081.825195	4.646769	1.158672	5.428644	0.115745	-0.230504	23.031963	0.013700	0.286724	0.021787	0.056641	-0.130489	-0.018200	0.452679	0.401903	0.444115	0.484384	0.202625	0.441000	0.115775	0.237997	61.059483	62.484783	59.919422	60.764984	0.000000	0.000000	0.000000	0.000000	0.000000	0.000000	0.000000	0.000000	0.120000	0.120000	0.120000	0.120000	0.325634	0.365320	0.046171	0.049602	0.383529	0.572660	0.124642	0.243111	0.012860	0.000722	0.036528	0.044291	2148	2	700	2	8	-9051.408203	136.776230	2824.926025	23.033407	377482.531250	592.909973	151.154022	151.302643	150.901154	150.901154	0.000000	1.000000	0.000000	0.000000	0.000000	0.000000	393.790009	0	0	255	0	0	0	3	127	0	0
1	20014906	7999.995117	1142.577393	6127.105957	4.067197	0.865487	4.882079	0.088812	-0.250831	23.081377	0.013178	0.308664	-0.030274	0.061619	-0.130166	-0.018977	0.449486	0.415477	0.472431	0.485549	0.229470	0.267497	0.085628	0.503173	61.530018	60.333363	59.751442	64.432152	0.000000	0.000000	0.000000	0.000000	0.000000	0.000000	0.000000	0.000000	0.120000	0.120000	0.120000	0.120000	0.358992	0.385856	0.057317	0.067242	0.426065	0.469510	0.103041	0.507646	0.012097	0.003967	0.041987	0.044516	2148	2	700	2	8	-9051.384766	136.821716	2825.302979	23.082911	378618.562500	590.980530	151.166061	151.318817	150.905457	150.905457	0.000000	1.000000	0.000000	0.000000	0.000000	0.000000	393.806519	0	0	255	0	0	0	3	127	0	0
1	20014921	7999.995117	1142.577393	6174.163086	4.622520	0.211992	4.539859	0.070241	-0.268665	23.127317	0.000906	0.336507	-0.088064	0.067041	-0.129934	-0.020726	0.450274	0.428051	0.501481	0.480657	0.210032	0.262171	0.103365	0.618064	61.292561	60.555130	60.231533	65.857468	0.000000	0.000000	0.000000	0.000000	0.000000	0.000000	0.000000	0.000000	0.120000	0.120000	0.120000	0.120000	0.370608	0.407499	0.069760	0.083653	0.425986	0.484551	0.124703	0.623700	0.012285	0.006973	0.047588	0.043573	2148	2	700	2	8	-9051.359375	136.867081	2825.683105	23.128984	379523.906250	587.626648	151.173965	151.332001	150.907883	150.907883	0.000000	1.000000	0.000000	0.000000	0.000000	0.000000	393.823120	0	0	255	0	0	0	3	127	0	0
1	20014937	7999.995117	1142.577393	6219.428223	5.020213	-0.048423	4.087189	0.053242	-0.294104	23.173214	-0.027643	0.367317	-0.161122	0.073019	-0.130045	-0.023719	0.460956	0.430838	0.503276	0.473760	0.170837	0.317987	0.143008	0.649584	61.060459	61.371590	61.095371	66.226952	0.000000	0.000000	0.000000	0.000000	0.000000	0.000000	0.000000	0.000000	0.120000	0.120000	0.120000	0.120000	0.386213	0.438756	0.086924	0.102516	0.422310	0.541869	0.167353	0.657624	0.014839	0.007639	0.047934	0.042243	2148	2	700	2	8	-9051.332031	136.912537	2826.066162	23.175140	380459.500000	584.897400	151.188843	151.346832	150.912109	150.912109	0.000000	1.000000	0.000000	0.000000	0.000000	0.000000	393.839813	0	0	255	0	0	0	3	127	0	0
1	20014953	7999.995117	1142.577393	6254.335449	5.609150	-0.410018	3.942752	0.033297	-0.331409	23.226103	-0.069268	0.398269	-0.195670	0.079493	-0.130753	-0.027644	0.480134	0.429254	0.500947	0.464209	0.191768	0.310166	0.178748	0.650185	61.688732	61.446960	61.906700	66.113777	0.000000	0.000000	0.000000	0.000000	0.000000	0.000000	0.000000	0.000000	0.120000	0.120000	0.120000	0.120000	0.401701	0.454858	0.100090	0.114599	0.445128	0.550544	0.204863	0.660207	0.019423	0.007260	0.047485	0.040402	2148	2	700	2	8	-9051.302734	136.957367	2826.447754	23.228491	380943.906250	581.897095	151.205948	151.360672	150.914337	150.914337	0.000000	1.000000	0.000000	0.000000	0.000000	0.000000	393.856415	0	0	255	0	0	0	3	127	0	0
1	20014968	7999.995117	1142.577393	6216.247070	6.551313	0.066378	4.247676	0.017621	-0.316188	23.338140	-0.067287	0.415358	-0.124504	0.086396	-0.131714	-0.031064	0.499381	0.429470	0.494349	0.454168	0.197110	0.522192	0.282157	0.146432	61.641922	64.810608	63.300587	59.873512	0.000000	0.000000	0.000000	0.000000	0.000000	0.000000	0.000000	0.000000	0.120000	0.120000	0.120000	0.120000	0.402450	0.487671	0.102675	0.103119	0.448128	0.714498	0.300257	0.179097	0.024025	0.007312	0.046213	0.038466	2148	2	700	2	8	-9051.270508	137.002975	2826.832764	23.340292	335292.062500	514.909668	151.226532	151.379578	150.919373	150.919373	-1.227450	1.000000	0.000000	0.000000	0.000000	0.000000	393.873108	0	0	200	0	0	0	3	127	0	0
1	20015000	7999.995117	1142.577393	6216.620117	7.881682	0.501134	4.441903	-0.016945	-0.316572	23.396910	-0.055297	0.431547	-0.092050	0.093664	-0.132478	-0.033845	0.504289	0.424151	0.487957	0.449985	0.126658	0.644395	0.218459	0.132720	60.988209	66.220383	62.794731	59.638317	0.000000	0.000000	0.000000	0.000000	0.000000	0.000000	0.000000	0.000000	0.120000	0.120000	0.120000	0.120000	0.409950	0.514499	0.109229	0.106887	0.429070	0.824594	0.244244	0.170410	0.025198	0.006040	0.044980	0.037659	2148	2	700	2	8	-9051.234375	137.049698	2827.223389	23.399055	290122.000000	445.748230	151.254715	151.393890	150.925690	150.925690	-2.469601	1.000000	0.000000	0.000000	0.000000	0.000000	393.890015	0	0	141	0	0	0	3	127	0	0
1	20015015	7999.995117	1142.577393	6222.977539	6.665195	0.716066	3.924344	-0.058573	-0.316311	23.433153	-0.047146	0.446988	-0.071631	0.101198	-0.133039	-0.036241	0.509824	0.410394	0.480159	0.452534	0.101273	0.713271	0.196724	0.115317	60.721004	66.715225	63.064766	59.395916	0.000000	0.000000	0.000000	0.000000	0.000000	0.000000	0.000000	0.000000	0.120000	0.120000	0.120000	0.120000	0.425608	0.539400	0.122084	0.115599	0.437491	0.894264	0.231528	0.163283	0.026521	0.002752	0.043477	0.038151	2148	2	700	2	8	-9051.197266	137.096848	2827.614502	23.435360	244835.109375	375.862579	151.283783	151.407013	150.926590	150.926590	-3.711751	1.000000	0.000000	0.000000	0.000000	0.000000	393.906921	0	0	69	0	0	0	3	127	0	0
1	20015031	7999.995117	1142.577393	6221.165527	7.489055	0.782165	3.484672	-0.093196	-0.316525	23.458084	-0.071271	0.466512	-0.016873	0.109215	-0.133728	-0.038095	0.550334	0.401959	0.474635	0.471487	0.093432	0.555707	0.337485	0.114469	60.808979	64.500618	64.881042	59.633522	0.000000	0.000000	0.000000	0.000000	0.000000	0.000000	0.000000	0.000000	0.120000	0.120000	0.120000	0.120000	0.426238	0.547863	0.126575	0.119490	0.436358	0.780362	0.360441	0.165472	0.036205	0.000735	0.042412	0.041805	2148	2	700	2	8	-9051.156250	137.145370	2828.015137	23.460403	198427.328125	304.464447	151.315582	151.424194	150.920258	150.920258	-4.983300	1.000000	0.000000	0.000000	0.000000	0.000000	393.924225	0	0	9	0	0	0	3	127	0	0
1	20015046	7999.995117	1142.577393	6167.195312	7.990601	1.417869	3.241191	-0.103890	-0.269546	23.515825	-0.091891	0.488223	-0.008641	0.117635	-0.134903	-0.039316	0.582893	0.425849	0.471480	0.496124	0.100692	0.523074	0.162231	0.132593	61.175266	64.597862	61.877506	60.006226	0.000000	0.000000	0.000000	0.000000	0.000000	0.000000	0.000000	0.000000	0.120000	0.120000	0.120000	0.120000	0.435175	0.568107	0.119598	0.124583	0.446672	0.772238	0.201550	0.181939	0.043989	0.006446	0.041804	0.046555	2148	2	700	2	8	-9051.112305	137.194839	2828.416016	23.517601	152633.703125	235.956985	151.355331	151.445526	150.919128	150.919128	-6.254850	1.000000	0.000000	0.000000	0.000000	0.000000	393.941528	0	0	0	0	0	0	3	127	0	0
1	20015062	7999.995117	1142.577393	6121.721680	8.544538	2.331707	3.501808	-0.121476	-0.243631	23.551208	-0.097478	0.505989	-0.080366	0.126337	-0.136153	-0.041194	0.612501	0.469484	0.474063	0.502735	0.088339	0.426714	0.054911	0.188742	60.852764	62.924438	60.940998	61.112564	0.000000	0.000000	0.000000	0.000000	0.000000	0.000000	0.000000	0.000000	0.120000	0.120000	0.120000	0.120000	0.481955	0.601286	0.129973	0.151799	0.489984	0.737312	0.141097	0.242212	0.051066	0.016877	0.042301	0.047829	2148	2	700	2	8	-9051.065430	137.245514	2828.815186	23.552782	107787.796875	168.101959	151.397583	151.463882	150.930267	150.930267	-7.519050	1.000000	0.000000	0.000000	0.000000	0.000000	393.958740	0	0	0	0	0	0	3	127	0	0
1	20015078	7999.995117	1142.577393	6104.518066	8.624476	1.814155	2.642046	-0.198120	-0.298400	23.550095	-0.070644	0.509396	-0.183198	0.135282	-0.137237	-0.044992	0.630493	0.479605	0.494407	0.498768	0.088785	0.462292	0.049019	0.147675	60.823200	63.488033	60.960514	59.868206	0.000000	0.000000	0.000000	0.000000	0.000000	0.000000	0.000000	0.000000	0.120000	0.120000	0.120000	0.120000	0.534934	0.655517	0.151231	0.167047	0.542252	0.802133	0.158977	0.222964	0.055367	0.019297	0.046224	0.047065	2148	2	700	2	8	-9051.015625	137.296448	2829.216309	23.552818	62406.023438	97.569084	151.426636	151.479156	150.933594	150.933594	-8.790600	1.000000	0.000000	0.000000	0.000000	0.000000	393.976044	0	0	0	0	0	0	3	127	0	0
1	20015093	7999.995117	1142.577393	6072.414551	8.091263	1.219939	2.124328	-0.266865	-0.318309	23.547888	-0.019140	0.505081	-0.235854	0.144317	-0.137560	-0.049959	0.625066	0.470920	0.518305	0.493368	0.078853	0.510284	0.030671	0.080620	60.371510	63.861691	60.542324	59.075226	0.000000	0.000000	0.000000	0.000000	0.000000	0.000000	0.000000	0.000000	0.120000	0.120000	0.120000	0.120000	0.568525	0.701240	0.162830	0.180474	0.573967	0.867253	0.165694	0.197663	0.054070	0.017221	0.050831	0.046024	2148	2	700	2	8	-9050.962891	137.348022	2829.624268	23.551550	16927.314453	26.604485	151.449829	151.490295	150.937805	150.937805	-10.084200	1.000000	0.000000	0.000000	0.000000	0.000000	393.993652	0	0	0	0	0	0	3	127	0	0
1	20015125	7999.995117	1142.577393	6020.914551	8.212851	0.865559	1.417776	-0.314646	-0.330580	23.539593	-0.020873	0.521652	-0.277739	0.153445	-0.137298	-0.055737	0.606369	0.468511	0.519520	0.487685	0.083845	0.246118	0.027959	0.222523	60.324142	59.633896	60.558395	61.266209	0.000000	0.000000	0.000000	0.000000	0.000000	0.000000	0.000000	0.000000	0.120000	0.120000	0.120000	0.120000	0.580255	0.687032	0.177145	0.207369	0.586281	0.729785	0.179338	0.304168	0.049601	0.016645	0.051066	0.044928	2148	2	700	2	8	-9050.907227	137.399643	2830.033936	23.544018	-27821.292969	-44.072487	151.474243	151.501801	150.944214	150.944214	-11.385150	1.000000	0.000000	0.000000	0.000000	0.000000	394.011353	0	0	0	0	0	0	3	127	0	0
1	20015140	7999.995117	1142.577393	5946.052246	9.503540	1.067995	1.213836	-0.328861	-0.306507	23.526512	-0.032027	0.546007	-0.253348	0.163260	-0.137160	-0.061783	0.576972	0.501835	0.521206	0.476493	0.071370	0.115683	0.014176	0.178396	60.093647	57.908504	60.339428	60.434826	0.000000	0.000000	0.000000	0.000000	0.000000	0.000000	0.000000	0.000000	0.120000	0.120000	0.120000	0.120000	0.611271	0.687984	0.182275	0.215798	0.615423	0.697642	0.182825	0.279990	0.042573	0.024611	0.051391	0.042770	2148	2	700	2	8	-9050.845703	137.452972	2830.454590	23.530806	-72099.929688	-115.644920	151.507736	151.533630	150.951447	150.951447	-12.722850	1.000000	0.000000	0.000000	0.000000	0.000000	394.029541	0	0	0	0	0	0	3	127	0	0
1	20015156	7999.995117	1142.577393	5865.541504	9.595615	1.435831	0.494446	-0.340522	-0.238620	23.501331	0.019498	0.554867	-0.090206	0.173507	-0.136687	-0.066308	0.554508	0.556404	0.538562	0.464684	0.086361	0.071588	0.007736	0.027240	60.047630	57.342693	60.150101	58.002899	0.000000	0.000000	0.000000	0.000000	0.000000	0.000000	0.000000	0.000000	0.120000	0.120000	0.120000	0.120000	0.619511	0.692732	0.171104	0.182020	0.625501	0.696421	0.171279	0.184047	0.037203	0.037656	0.054737	0.040493	2148	2	700	2	8	-9050.780273	137.507370	2830.878662	23.505009	-115724.203125	-188.062546	151.533997	151.571304	150.959702	150.959702	-14.075251	1.000000	0.000000	0.000000	0.000000	0.000000	394.047943	0	0	0	0	0	0	3	127	0	0
1	20015187	7999.995117	1142.577393	5795.202637	11.098062	2.793389	0.246166	-0.320379	-0.091967	23.447731	0.060815	0.576401	0.051464	0.184053	-0.135084	-0.067928	0.541358	0.566841	0.558013	0.463301	0.006700	0.041150	-0.008733	0.013271	58.886780	56.601070	59.707191	57.523655	0.000000	0.000000	0.000000	0.000000	0.000000	0.000000	0.000000	0.000000	0.120000	0.120000	0.120000	0.120000	0.608715	0.703427	0.170395	0.173611	0.608752	0.704630	0.170618	0.174118	0.034059	0.040151	0.058487	0.040227	2148	2	700	2	8	-9050.708984	137.564133	2831.305908	23.450096	-133604.421875	-219.827347	151.566711	151.611176	150.972168	150.972168	-14.700000	1.000000	0.000000	0.000000	0.000000	0.000000	394.066528	0	0	0	0	0	0	3	127	0	0
1	20015203	7999.995117	1142.577393	5743.969238	11.459397	3.088401	-0.677492	-0.366633	-0.040690	23.376089	0.023304	0.607408	0.151133	0.195214	-0.133464	-0.067207	0.535813	0.564660	0.586246	0.476923	-0.021936	0.013555	-0.045897	-0.000257	58.431377	55.997288	59.093620	57.139034	0.000000	0.000000	0.000000	0.000000	0.000000	0.000000	0.000000	0.000000	0.120000	0.120000	0.120000	0.120000	0.619004	0.722905	0.178737	0.196527	0.619392	0.723032	0.184535	0.196527	0.032734	0.039630	0.063930	0.042853	2148	2	700	2	8	-9050.632812	137.622421	2831.735596	23.379002	-130873.656250	-217.322800	151.603470	151.647888	150.973129	150.973129	-14.700000	1.000000	0.000000	0.000000	0.000000	0.000000	394.085327	0	0	0	0	0	0	3	127	0	0
1	20015218	7999.995117	1142.577393	5701.643555	10.805382	2.049651	-1.582015	-0.466382	-0.064193	23.300167	-0.008530	0.633409	0.176226	0.206893	-0.132715	-0.065679	0.534318	0.574671	0.600375	0.478146	-0.046146	0.001528	-0.022606	-0.055591	57.971436	55.617336	59.507500	55.865360	0.000000	0.000000	0.000000	0.000000	0.000000	0.000000	0.000000	0.000000	0.120000	0.120000	0.120000	0.120000	0.684424	0.748729	0.183672	0.220380	0.685978	0.748730	0.185058	0.227284	0.032376	0.042023	0.066654	0.043089	2148	2	700	2	8	-9050.554688	137.679504	2832.158691	23.304920	-128742.492188	-215.350220	151.635834	151.681488	150.967377	150.967377	-14.700000	1.000000	0.000000	0.000000	0.000000	0.000000	394.103912	0	0	0	0	0	0	3	127	0	0
1	20015234	7999.995117	1142.577393	5647.688965	10.855145	1.209948	-1.899634	-0.578044	-0.075080	23.229572	-0.007524	0.653756	0.211778	0.219028	-0.132024	-0.063667	0.531675	0.599668	0.597009	0.464911	-0.047998	0.017907	-0.021007	-0.162187	57.747154	55.404526	59.246243	54.397045	0.000000	0.000000	0.000000	0.000000	0.000000	0.000000	0.000000	0.000000	0.120000	0.120000	0.120000	0.120000	0.704895	0.774086	0.204981	0.241018	0.706527	0.774294	0.206054	0.290507	0.031745	0.047999	0.066005	0.040537	2148	2	700	2	8	-9050.472656	137.736221	2832.582275	23.236883	-126042.312500	-212.827637	151.649185	151.719574	150.974274	150.974274	-14.700000	1.000000	0.000000	0.000000	0.000000	0.000000	394.122620	0	0	0	0	0	0	3	127	0	0
1	20015250	7999.995117	1142.577393	5606.327637	8.099273	0.319674	-3.305193	-0.688695	-0.106251	23.138399	-0.051650	0.684563	0.268699	0.231900	-0.131976	-0.060559	0.522786	0.609711	0.584803	0.453715	-0.047714	-0.011915	-0.080201	-0.146382	57.497112	54.559952	58.335335	54.741631	0.000000	0.000000	0.000000	0.000000	0.000000	0.000000	0.000000	0.000000	0.120000	0.120000	0.120000	0.120000	0.689768	0.884050	0.227264	0.242748	0.691417	0.884130	0.241000	0.283468	0.029620	0.050399	0.063652	0.038379	2148	2	700	2	8	-9050.387695	137.792862	2833.008301	23.148888	-123733.484375	-210.649414	151.672241	151.762634	150.977554	150.977554	-14.700000	1.000000	0.000000	0.000000	0.000000	0.000000	394.141510	0	0	0	0	0	0	3	127	0	0
1	20015265	7999.995117	1142.577393	5586.365234	10.982908	0.585375	-2.595653	-0.779932	-0.087368	23.029638	-0.027724	0.697008	0.265779	0.245041	-0.132083	-0.056950	0.514561	0.589797	0.567712	0.449558	-0.057133	-0.044647	-0.035983	-0.104851	57.009117	53.694359	58.875427	54.753483	0.000000	0.000000	0.000000	0.000000	0.000000	0.000000	0.000000	0.000000	0.120000	0.120000	0.120000	0.120000	0.716827	0.895605	0.221055	0.261759	0.719101	0.896717	0.223964	0.281978	0.027653	0.045639	0.060357	0.037577	2148	2	700	2	8	-9050.299805	137.848633	2833.427490	23.043007	-122751.609375	-209.717041	151.711227	151.775085	150.977997	150.977997	-14.700000	1.000000	0.000000	0.000000	0.000000	0.000000	394.160217	0	0	0	0	0	0	3	127	0	0
1	20015281	7999.995117	1142.577393	5548.430664	10.788432	0.969491	-3.361040	-0.894464	-0.056201	22.947943	0.055963	0.688564	0.163425	0.257923	-0.131003	-0.054758	0.502687	0.556559	0.549377	0.449671	-0.071059	-0.002697	-0.016685	-0.129885	56.246784	53.935173	58.686699	53.940388	0.000000	0.000000	0.000000	0.000000	0.000000	0.000000	0.000000	0.000000	0.120000	0.120000	0.120000	0.120000	0.832649	0.930541	0.241017	0.304515	0.835675	0.930545	0.241594	0.331058	0.024815	0.037693	0.056822	0.037599	2148	2	700	2	8	-9050.209961	137.904068	2833.839355	22.965437	-121094.656250	-208.135178	151.750519	151.796478	150.998657	150.998657	-14.700000	1.000000	0.000000	0.000000	0.000000	0.000000	394.178711	0	0	0	0	0	0	3	127	0	0
1	20015296	7999.995117	1142.577393	5491.770020	10.808645	0.420971	-2.806434	-1.048014	-0.046973	22.885242	0.117852	0.682845	0.117991	0.270614	-0.128473	-0.054080	0.486025	0.526676	0.533553	0.446868	-0.104977	0.053768	-0.024470	-0.198520	55.455818	53.997055	58.185314	52.895519	0.000000	0.000000	0.000000	0.000000	0.000000	0.000000	0.000000	0.000000	0.120000	0.120000	0.120000	0.120000	0.868865	0.954006	0.288380	0.336011	0.875184	0.955520	0.289416	0.390273	0.020832	0.030549	0.053771	0.037059	2148	2	700	2	8	-9050.116211	137.959213	2834.251953	22.909273	-118356.093750	-205.497147	151.759827	151.827911	151.022919	151.022919	-14.700000	1.000000	0.000000	0.000000	0.000000	0.000000	394.197296	0	0	0	0	0	0	3	127	0	0
1	20015328	7999.995117	1142.577393	5443.578125	9.585290	-0.214759	-3.140906	-1.153706	-0.029088	22.793282	0.063952	0.719504	0.165691	0.283310	-0.126129	-0.053028	0.469825	0.506428	0.523625	0.442475	-0.041263	0.022945	-0.076910	-0.259525	56.118755	53.272907	57.321690	51.885128	0.000000	0.000000	0.000000	0.000000	0.000000	0.000000	0.000000	0.000000	0.120000	0.120000	0.120000	0.120000	0.821310	0.992063	0.326614	0.356289	0.822346	0.992329	0.335547	0.440789	0.016959	0.025709	0.051857	0.036212	2148	2	700	2	8	-9050.023438	138.011993	2834.651611	22.822477	-115964.609375	-203.168732	151.780777	151.875946	151.032974	151.032974	-14.700000	1.000000	0.000000	0.000000	0.000000	0.000000	394.215393	0	0	0	0	0	0	3	127	0	0
1	20015343	7999.995117	1142.577393	5413.098633	10.032513	-0.345486	-3.463554	-1.237083	-0.006410	22.673107	0.003835	0.751635	0.226885	0.296604	-0.124993	-0.051206	0.476570	0.497802	0.514236	0.438448	-0.054972	-0.015020	-0.167637	-0.139276	55.589481	52.281670	56.055969	53.447399	0.000000	0.000000	0.000000	0.000000	0.000000	0.000000	0.000000	0.000000	0.120000	0.120000	0.120000	0.120000	0.820497	1.027653	0.340093	0.355427	0.822337	1.027762	0.379164	0.381741	0.018571	0.023647	0.050047	0.035435	2148	2	700	2	8	-9049.928711	138.063629	2835.044434	22.706833	-114290.015625	-201.524139	151.832764	151.922302	151.032288	151.032288	-14.700000	1.000000	0.000000	0.000000	0.000000	0.000000	394.233307	0	0	0	0	0	0	3	127	0	0
1	20015359	7999.995117	1142.577393	5403.375488	10.938691	0.398834	-4.424779	-1.282351	0.065157	22.528969	-0.001981	0.765122	0.233794	0.310381	-0.124358	-0.048662	0.517007	0.508281	0.499576	0.436394	-0.063047	-0.051038	-0.068707	-0.120564	55.158928	51.444759	57.198353	53.182003	0.000000	0.000000	0.000000	0.000000	0.000000	0.000000	0.000000	0.000000	0.120000	0.120000	0.120000	0.120000	0.835318	1.067395	0.327563	0.366607	0.837694	1.068615	0.334691	0.385923	0.028238	0.026152	0.047220	0.035039	2148	2	700	2	8	-9049.830078	138.115860	2835.435791	22.565527	-113788.765625	-201.029587	151.893692	151.966522	151.035263	151.035263	-14.700000	1.000000	0.000000	0.000000	0.000000	0.000000	394.251312	0	0	0	0	0	0	3	127	0	0
1	20015375	7999.995117	1142.577393	5373.162598	12.533141	0.995081	-4.258813	-1.371454	0.093527	22.420736	0.025248	0.768007	0.227628	0.324041	-0.123478	-0.046160	0.532241	0.535778	0.485523	0.434939	-0.088720	0.005321	-0.032941	-0.154256	54.526020	51.768120	57.302197	52.174435	0.000000	0.000000	0.000000	0.000000	0.000000	0.000000	0.000000	0.000000	0.120000	0.120000	0.120000	0.120000	0.907358	1.104491	0.336283	0.403724	0.911685	1.104504	0.337892	0.432189	0.031880	0.032725	0.044511	0.034759	2148	2	700	2	8	-9049.728516	138.167679	2835.817627	22.462839	-112546.460938	-199.799164	151.954315	152.008911	151.052277	151.052277	-14.700000	1.000000	0.000000	0.000000	0.000000	0.000000	394.269012	0	0	0	0	0	0	3	127	0	0
1	20015390	7999.995117	1142.577393	5327.286133	11.944478	0.485621	-4.143381	-1.498697	0.081235	22.332005	0.025752	0.777059	0.198672	0.337708	-0.122377	-0.044206	0.513013	0.540579	0.472648	0.428338	-0.063966	0.052978	-0.050921	-0.243914	54.392757	51.866882	56.756176	50.912697	0.000000	0.000000	0.000000	0.000000	0.000000	0.000000	0.000000	0.000000	0.120000	0.120000	0.120000	0.120000	0.961798	1.163629	0.383278	0.434481	0.963923	1.164834	0.386646	0.498265	0.027283	0.033873	0.042029	0.033486	2148	2	700	2	8	-9049.625000	138.218658	2836.195068	22.382385	-110431.554688	-197.689041	152.001236	152.059830	151.072540	151.072540	-14.700000	1.000000	0.000000	0.000000	0.000000	0.000000	394.286621	0	0	0	0	0	0	3	127	0	0
1	20015406	7999.995117	1142.577393	5275.415039	10.921803	-0.597002	-4.071061	-1.679586	0.005201	22.250790	-0.017709	0.801537	0.220273	0.351463	-0.121729	-0.042259	0.490816	0.533478	0.460719	0.416072	-0.062275	0.087358	-0.141911	-0.266955	54.227077	51.833023	55.306801	50.478607	0.000000	0.000000	0.000000	0.000000	0.000000	0.000000	0.000000	0.000000	0.120000	0.120000	0.120000	0.120000	0.971604	1.215361	0.435287	0.471942	0.973597	1.218496	0.457836	0.542213	0.021977	0.032176	0.039729	0.031121	2148	2	700	2	8	-9049.521484	138.267456	2836.564209	22.314091	-108022.312500	-195.260803	152.036835	152.116043	151.079926	151.079926	-14.700000	1.000000	0.000000	0.000000	0.000000	0.000000	394.303925	0	0	0	0	0	0	3	127	0	0
1	20015421	7999.995117	1142.577393	5236.491699	10.557129	-1.429140	-3.872179	-1.819209	-0.043103	22.146637	-0.058815	0.819812	0.173271	0.365514	-0.121954	-0.040542	0.476025	0.526664	0.446291	0.402757	-0.058029	0.059919	-0.105387	-0.340130	53.877174	51.004837	56.257866	49.142601	0.000000	0.000000	0.000000	0.000000	0.000000	0.000000	0.000000	0.000000	0.120000	0.120000	0.120000	0.120000	0.987257	1.244486	0.421892	0.506581	0.988961	1.245927	0.434856	0.610174	0.018441	0.030547	0.036947	0.028554	2148	2	700	2	8	-9049.416992	138.314362	2836.927246	22.221273	-106065.328125	-193.268707	152.092178	152.178848	151.078812	151.078812	-14.700000	1.000000	0.000000	0.000000	0.000000	0.000000	394.321014	0	0	0	0	0	0	3	127	0	0
1	20015437	7999.995117	1142.577393	5197.544922	10.838170	-1.163258	-3.971857	-1.911011	-0.047416	22.038147	-0.043286	0.820641	0.102876	0.379837	-0.122278	-0.040110	0.469819	0.518270	0.433122	0.388705	-0.066867	0.046509	-0.046464	-0.390651	53.369324	50.490623	56.406391	48.452156	0.000000	0.000000	0.000000	0.000000	0.000000	0.000000	0.000000	0.000000	0.120000	0.120000	0.120000	0.120000	1.065069	1.237983	0.430110	0.531445	1.067166	1.238856	0.432613	0.659577	0.016958	0.028540	0.034408	0.025845	2148	2	700	2	8	-9049.308594	138.361404	2837.291992	22.120897	-104363.710938	-191.521790	152.147293	152.247620	151.102936	151.102936	-14.700000	1.000000	0.000000	0.000000	0.000000	0.000000	394.338318	0	0	0	0	0	0	3	127	0	0
1	20015453	7999.995117	1142.577393	5168.191406	10.736183	-0.718241	-4.129527	-2.007475	-0.033526	21.926109	0.037399	0.798828	0.189975	0.394041	-0.121752	-0.039262	0.465720	0.512688	0.429420	0.373218	-0.181661	0.016520	-0.047540	-0.224105	51.282154	49.790035	55.861160	50.606369	0.000000	0.000000	0.000000	0.000000	0.000000	0.000000	0.000000	0.000000	0.120000	0.120000	0.120000	0.120000	1.132841	1.238496	0.429681	0.512016	1.147315	1.238607	0.432303	0.558913	0.015978	0.027206	0.033695	0.022859	2148	2	700	2	8	-9049.197266	138.408600	2837.656250	22.017839	-102925.609375	-190.034424	152.182556	152.348267	151.133850	151.133850	-14.700000	1.000000	0.000000	0.000000	0.000000	0.000000	394.355713	0	0	0	0	0	0	3	119	0	0
1	20015484	7999.995117	1142.577393	5135.191895	11.507969	-0.481630	-3.972060	-2.106555	0.013179	21.827759	0.135889	0.768826	0.220923	0.407521	-0.119625	-0.037194	0.456087	0.505152	0.444073	0.360866	-0.264867	0.024892	-0.042155	-0.144182	50.135773	49.655632	55.511913	50.911228	0.000000	0.000000	0.000000	0.000000	0.000000	0.000000	0.000000	0.000000	0.120000	0.120000	0.120000	0.120000	1.099253	1.276845	0.436775	0.521231	1.130713	1.277088	0.438805	0.540805	0.013675	0.025404	0.036520	0.020478	2148	2	700	2	8	-9049.083984	138.455063	2838.013672	21.929176	-101457.148438	-188.505066	152.199249	152.442596	151.168243	151.168243	-14.700000	1.000000	0.000000	0.000000	0.000000	0.000000	394.372925	0	0	0	0	0	0	3	115	0	0
1	20015500	7999.995117	1142.577393	5103.614746	10.335471	-0.849737	-4.082625	-2.252279	0.020822	21.731504	0.163458	0.759731	0.213916	0.420648	-0.116349	-0.035042	0.443484	0.491602	0.461361	0.355862	-0.141192	0.026305	-0.163434	-0.153614	51.517319	49.277725	53.849384	50.302090	0.000000	0.000000	0.000000	0.000000	0.000000	0.000000	0.000000	0.000000	0.120000	0.120000	0.120000	0.120000	1.027155	1.257264	0.495797	0.549984	1.036814	1.257539	0.522040	0.571033	0.010662	0.022165	0.039853	0.019513	2148	2	700	2	8	-9048.968750	138.501038	2838.371094	21.847916	-99941.843750	-186.915466	152.233627	152.507370	151.202209	151.202209	-14.700000	1.000000	0.000000	0.000000	0.000000	0.000000	394.390228	0	0	0	0	0	0	3	113	0	0
1	20015515	7999.995117	1142.577393	5075.061035	10.822036	-1.408183	-3.681614	-2.379792	0.049186	21.623343	0.146306	0.765751	0.201284	0.433814	-0.113187	-0.032904	0.431953	0.468795	0.449426	0.353418	-0.078944	-0.006645	-0.147605	-0.215664	52.031395	48.923916	53.547626	49.296955	0.000000	0.000000	0.000000	0.000000	0.000000	0.000000	0.000000	0.000000	0.120000	0.120000	0.120000	0.120000	1.015344	1.282846	0.540753	0.592226	1.018408	1.282863	0.560536	0.630272	0.007905	0.016713	0.037552	0.019042	2148	2	700	2	8	-9048.850586	138.545944	2838.726318	21.753962	-98812.710938	-185.723236	152.306885	152.583466	151.221375	151.221375	-14.700000	1.000000	0.000000	0.000000	0.000000	0.000000	394.407532	0	0	0	0	0	0	3	110	0	0
1	20015531	7999.995117	1142.577393	5038.569336	10.326097	-1.913270	-3.706578	-2.531744	0.043061	21.528282	0.113148	0.777743	0.146402	0.446871	-0.110612	-0.031549	0.428321	0.440008	0.431554	0.350813	-0.062020	0.010878	-0.115154	-0.348268	52.077877	48.996113	53.635204	47.625290	0.000000	0.000000	0.000000	0.000000	0.000000	0.000000	0.000000	0.000000	0.120000	0.120000	0.120000	0.120000	1.021824	1.271076	0.591314	0.630056	1.023705	1.271123	0.602422	0.719904	0.007037	0.009831	0.034106	0.018540	2148	2	700	2	8	-9048.733398	138.588669	2839.071289	21.676680	-97232.554688	-184.043488	152.369171	152.635895	151.229065	151.229065	-14.700000	1.000000	0.000000	0.000000	0.000000	0.000000	394.424438	0	0	0	0	0	0	3	107	0	0
1	20015546	7999.995117	1142.577393	5019.259277	9.677305	-2.046999	-3.609038	-2.635569	0.083481	21.411715	0.131108	0.769271	0.078923	0.460153	-0.108215	-0.031079	0.430173	0.415502	0.413080	0.346134	-0.081855	-0.032704	-0.067545	-0.319112	51.442463	48.156677	54.227978	47.731945	0.000000	0.000000	0.000000	0.000000	0.000000	0.000000	0.000000	0.000000	0.120000	0.120000	0.120000	0.120000	1.023198	1.233101	0.541843	0.648857	1.026467	1.233535	0.546037	0.723082	0.007480	0.003973	0.030544	0.017637	2148	2	700	2	8	-9048.613281	138.631027	2839.418457	21.573473	-96230.937500	-182.971771	152.432709	152.694855	151.230484	151.230484	-14.700000	1.000000	0.000000	0.000000	0.000000	0.000000	394.441528	0	0	0	0	0	0	3	103	0	0
1	20015562	7999.995117	1142.577393	4996.058105	9.709996	-1.549041	-4.172818	-2.735797	0.116564	21.294622	0.107045	0.783924	0.073312	0.473389	-0.105822	-0.031153	0.439534	0.400372	0.392128	0.340544	-0.068908	-0.032526	-0.130206	-0.275762	51.420483	47.939209	53.072327	48.195312	0.000000	0.000000	0.000000	0.000000	0.000000	0.000000	0.000000	0.000000	0.120000	0.120000	0.120000	0.120000	1.006200	1.233204	0.599551	0.677175	1.008556	1.233633	0.613527	0.731171	0.009718	0.000356	0.026505	0.016560	2148	2	700	2	8	-9048.492188	138.672852	2839.760742	21.469959	-95178.164062	-181.839401	152.498535	152.772888	151.270813	151.270813	-14.700000	1.000000	0.000000	0.000000	0.000000	0.000000	394.458527	0	0	0	0	0	0	3	100	0	0
1	20015578	7999.995117	1142.577393	4987.138672	10.429813	-1.237175	-4.010771	-2.826756	0.160331	21.164154	0.092197	0.791479	0.070751	0.487367	-0.103663	-0.031451	0.450822	0.387954	0.372275	0.333543	-0.080990	-0.069675	-0.150471	-0.158104	51.055695	47.301552	52.552185	49.359734	0.000000	0.000000	0.000000	0.000000	0.000000	0.000000	0.000000	0.000000	0.120000	0.120000	0.120000	0.120000	0.990290	1.216252	0.619349	0.675725	0.993596	1.218246	0.637366	0.693975	0.012416	-0.002613	0.022677	0.015210	2148	2	700	2	8	-9048.363281	138.716049	2840.114258	21.352699	-94719.601562	-181.344238	152.569977	152.839752	151.296051	151.296051	-14.700000	1.000000	0.000000	0.000000	0.000000	0.000000	394.476227	0	0	0	0	0	0	3	96	0	0
1	20015609	7999.995117	1142.577393	4978.423340	11.659376	-0.735040	-3.759706	-2.906404	0.213288	21.030411	0.080228	0.794963	0.086714	0.501664	-0.101659	-0.031426	0.458626	0.377314	0.353666	0.326125	-0.069210	-0.083674	-0.150776	-0.099773	51.032703	47.025394	52.272385	49.588711	0.000000	0.000000	0.000000	0.000000	0.000000	0.000000	0.000000	0.000000	0.120000	0.120000	0.120000	0.120000	0.967893	1.213121	0.640362	0.696876	0.970365	1.216003	0.657873	0.703983	0.014282	-0.005156	0.019089	0.013780	2148	2	700	2	8	-9048.228516	138.759933	2840.470459	21.231363	-94391.968750	-180.989731	152.642761	152.906769	151.323135	151.323135	-14.700000	1.000000	0.000000	0.000000	0.000000	0.000000	394.494232	0	0	0	0	0	0	3	96	0	0
1	20015625	7999.995117	1142.577393	4960.373535	11.124970	-0.478253	-4.216550	-3.017597	0.230884	20.906967	0.041349	0.811438	0.048869	0.516065	-0.100113	-0.031606	0.464683	0.375899	0.337590	0.318993	-0.055506	-0.059175	-0.149431	-0.127256	51.038971	47.163414	52.100391	48.891571	0.000000	0.000000	0.000000	0.000000	0.000000	0.000000	0.000000	0.000000	0.120000	0.120000	0.120000	0.120000	0.965828	1.197358	0.669915	0.752996	0.967421	1.198820	0.686379	0.763673	0.015730	-0.005494	0.015990	0.012405	2148	2	700	2	8	-9048.092773	138.803375	2840.821533	21.124878	-93663.078125	-180.198883	152.712921	152.961136	151.347473	151.347473	-14.700000	1.000000	0.000000	0.000000	0.000000	0.000000	394.512146	0	0	0	0	0	0	3	96	0	0
